[{
    "id": 1,
    "provider_name": "Grylls and Paige",
    "api_key": "33b84e05-6534-5cc6-6b1b-cee1-edf9fee424e8",
    "organisation_type": {
        "code": "LIMITED_PARTNERSHIP",
        "description": "Partnership"
    },
    "vat_registered": true,
    "provider_type": "FIRM",
    "fee_scheme": ["LGFS"],
    "account_status": "active",
    "suppliers": [{
        "name": "Redruth (TR15 2SD)",
        "lgfs_account_number": "0E096C",
        "lead_office": true,
        "vat_number": 132894359,
        "address": {
            "address_line_1": "Bank House",
            "address_line_2": "West End",
            "city": "Redruth",
            "county": "Cornwall",
            "postcode": "TR15 2SD"
        },
        "location": {
            "latitude": 50.2324465161328,
            "longitude": -5.23091075695805
        },
        "region": "South West",
        "dx": {
            "reference": 81752,
            "centre": "REDRUTH"
        }
    }]
}, {
    "id": 5,
    "provider_name": "Lemon & Co",
    "api_key": "23533cb0-3510-cee3-72b0-ccca-0cdc2d3cadcb",
    "organisation_type": {
        "code": "LLP",
        "description": "Limited Liability Partnership"
    },
    "vat_registered": true,
    "provider_type": "FIRM",
    "fee_scheme": ["LGFS"],
    "account_status": "active",
    "suppliers": [{
        "name": "Swindon (SN1 1PY)",
        "lgfs_account_number": "0E104L",
        "lead_office": true,
        "vat_number": 194538822,
        "address": {
            "address_line_1": "34 Regent Circus",
            "city": "Swindon",
            "county": "Wiltshire",
            "postcode": "SN1 1PY"
        },
        "location": {
            "latitude": 51.5586251164102,
            "longitude": -1.78225470414506
        },
        "region": "South West",
        "dx": {
            "reference": 400912,
            "centre": "SWINDON"
        }
    }]
}, {
    "id": 7,
    "provider_name": "Lyons Davidson Ltd",
    "api_key": "b013db52-800a-f151-e364-6785-fd08dd739b88",
    "organisation_type": {
        "code": "LTD",
        "description": "Private Limited Company"
    },
    "vat_registered": true,
    "provider_type": "FIRM",
    "fee_scheme": ["LGFS"],
    "account_status": "active",
    "suppliers": [{
        "name": "Bristol (BS1 4QP)",
        "lgfs_account_number": "0E125J",
        "lead_office": true,
        "vat_number": 138149461,
        "address": {
            "address_line_1": "43 Queen Square",
            "city": "Bristol",
            "postcode": "BS1 4QP"
        },
        "location": {
            "latitude": 51.4497766566719,
            "longitude": -2.59548389737555
        },
        "region": "South West"
    }, {
        "name": "Cardiff (CF10 1BR)",
        "lgfs_account_number": "2P194R",
        "lead_office": false,
        "vat_number": 138149461,
        "address": {
            "address_line_1": "Womanby Street",
            "city": "Cardiff",
            "postcode": "CF10 1BR"
        },
        "location": {
            "latitude": 51.4803968188672,
            "longitude": -3.18130146785014
        },
        "region": "Wales"
    }]
}, {
    "id": 9,
    "provider_name": "Boothroyds Solicitors",
    "api_key": "017539d5-3e1c-72e8-84dc-d0eb-419f83830c77",
    "organisation_type": {
        "code": "LIMITED_PARTNERSHIP",
        "description": "Partnership"
    },
    "vat_registered": true,
    "provider_type": "FIRM",
    "fee_scheme": ["LGFS"],
    "account_status": "active",
    "suppliers": [{
        "name": "London (SE6 4HJ)",
        "lgfs_account_number": "0A005F",
        "lead_office": true,
        "vat_number": 153430144,
        "address": {
            "address_line_1": "1 Station Buildings",
            "address_line_2": "Catford Road",
            "address_line_3": "Catford",
            "city": "London",
            "postcode": "SE6 4HJ"
        },
        "dx": {
            "reference": 34361,
            "centre": "CATFORD"
        }
    }]
}, {
    "id": 10,
    "agfs_account_number": "02AAB",
    "provider_name": "Dobsons",
    "api_key": "9e3180bc-b2e0-4e51-89bd-2037-bf2247f4766d",
    "organisation_type": {
        "code": "SOLE_TRADER",
        "description": "Sole Practitioner"
    },
    "vat_registered": true,
    "provider_type": "FIRM",
    "fee_scheme": ["LGFS", "AGFS"],
    "account_status": "active",
    "suppliers": [{
        "name": "Bromley (BR1 1LT)",
        "lgfs_account_number": "0A018V",
        "lead_office": true,
        "vat_number": 943886867,
        "address": {
            "address_line_1": "Kingfisher House",
            "address_line_2": "21-23 Elmsfield Road",
            "city": "Bromley",
            "county": "Kent",
            "postcode": "BR1 1LT"
        },
        "location": {
            "latitude": 51.40199131817,
            "longitude": 0.0182522859486914
        },
        "region": "London",
        "dx": {
            "reference": 117608,
            "centre": "BROMLEY 7"
        }
    }]
}, {
    "id": 11,
    "provider_name": "Robinson Allfree",
    "api_key": "a114d15d-bb2a-4efb-dc45-72e1-96c5c1517914",
    "organisation_type": {
        "code": "LIMITED_PARTNERSHIP",
        "description": "Partnership"
    },
    "vat_registered": true,
    "provider_type": "FIRM",
    "fee_scheme": ["LGFS"],
    "account_status": "active",
    "suppliers": [{
        "name": "Ramsgate (CT11 9AL)",
        "lgfs_account_number": "0A022Z",
        "lead_office": true,
        "vat_number": 201788473,
        "address": {
            "address_line_1": "17-25 Cavendish Street",
            "city": "Ramsgate",
            "county": "Kent",
            "postcode": "CT11 9AL"
        },
        "location": {
            "latitude": 51.3340632672932,
            "longitude": 1.41787122126614
        },
        "region": "South East",
        "dx": {
            "reference": 30604,
            "centre": "RAMSGATE"
        }
    }, {
        "name": "Broadstairs (CT10 1JD)",
        "lgfs_account_number": "0C876B",
        "lead_office": false,
        "vat_number": 201788473,
        "address": {
            "address_line_1": "142 High Street",
            "city": "Broadstairs",
            "county": "Kent",
            "postcode": "CT10 1JD"
        },
        "location": {
            "latitude": 51.3599323680878,
            "longitude": 1.43603391736136
        },
        "region": "South East",
        "dx": {
            "reference": 32453,
            "centre": "BROADSTAIRS"
        }
    }]
}, {
    "id": 12,
    "provider_name": "Ronald Fletcher & Co",
    "api_key": "324b3287-a7e8-2a7f-72bd-2e5a-1f6562ac7f96",
    "organisation_type": {
        "code": "LLP",
        "description": "Limited Liability Partnership"
    },
    "vat_registered": true,
    "provider_type": "FIRM",
    "fee_scheme": ["LGFS"],
    "account_status": "active",
    "suppliers": [{
        "name": "London (W9 1NJ)",
        "lgfs_account_number": "0A036P",
        "lead_office": true,
        "vat_number": 242888826,
        "address": {
            "address_line_1": "243 Elgin Avenue",
            "address_line_2": "Maida Vale",
            "city": "London",
            "postcode": "W9 1NJ"
        },
        "location": {
            "latitude": 51.5302531523704,
            "longitude": -0.185840483443269
        },
        "region": "London",
        "dx": {
            "reference": 46252,
            "centre": "MAIDA VALE"
        }
    }]
}, {
    "id": 14,
    "provider_name": "Field Fisher Waterhouse LLP",
    "api_key": "a981bf97-4494-8cc6-ed86-ff46-384806a6ce19",
    "organisation_type": {
        "code": "LLP",
        "description": "Limited Liability Partnership"
    },
    "vat_registered": true,
    "provider_type": "FIRM",
    "fee_scheme": ["LGFS"],
    "account_status": "active",
    "suppliers": [{
        "name": "London (EC4R 3TT)",
        "lgfs_account_number": "0A044Y",
        "lead_office": true,
        "vat_number": 232273784,
        "address": {
            "address_line_1": "Riverbank House",
            "address_line_2": "2 Swan Lane",
            "city": "London",
            "postcode": "EC4R 3TT"
        },
        "location": {
            "latitude": 51.5096887089634,
            "longitude": -0.0885479475163327
        },
        "region": "London",
        "dx": {
            "reference": 823,
            "centre": "LONDON/CITY"
        }
    }]
}, {
    "id": 16,
    "provider_name": "Goldkorns",
    "api_key": "d55f7302-3bc9-9d23-c7e6-beff-9169f9b8a45c",
    "organisation_type": {
        "code": "LIMITED_PARTNERSHIP",
        "description": "Partnership"
    },
    "vat_registered": true,
    "provider_type": "FIRM",
    "fee_scheme": ["LGFS"],
    "account_status": "active",
    "suppliers": [{
        "name": "Bromley (BR1 1BY)",
        "lgfs_account_number": "2M136E",
        "lead_office": true,
        "vat_number": 653346632,
        "address": {
            "address_line_1": "9 London Road",
            "city": "Bromley",
            "county": "Kent",
            "postcode": "BR1 1BY"
        },
        "location": {
            "latitude": 51.408116434432,
            "longitude": 0.0108722461956894
        },
        "region": "London",
        "dx": {
            "reference": 58205,
            "centre": "LEYTONSTONE"
        }
    }, {
        "name": "London (SE5 7HN)",
        "lgfs_account_number": "0A063U",
        "lead_office": false,
        "vat_number": 653346632,
        "address": {
            "address_line_1": "Room 41, Camberwell Business Centre",
            "address_line_2": "99-103 Lomond Grove",
            "address_line_3": "Camberwell",
            "city": "London",
            "postcode": "SE5 7HN"
        },
        "location": {
            "latitude": 51.4769997558169,
            "longitude": -0.0912541304025288
        },
        "region": "London",
        "dx": {
            "reference": 58205,
            "centre": "LEYTONSTONE"
        }
    }]
}, {
    "id": 17,
    "provider_name": "Turbervilles",
    "api_key": "63b83a7e-621c-8ac7-68b2-8e1f-3fdd4de4fe3b",
    "organisation_type": {
        "code": "LIMITED_PARTNERSHIP",
        "description": "Partnership"
    },
    "vat_registered": true,
    "provider_type": "FIRM",
    "fee_scheme": ["LGFS"],
    "account_status": "active",
    "suppliers": [{
        "name": "Uxbridge (UB8 1JT)",
        "lgfs_account_number": "0A090Y",
        "lead_office": true,
        "vat_number": 223100240,
        "address": {
            "address_line_1": "Hill House",
            "address_line_2": "118 High Street",
            "city": "Uxbridge",
            "county": "Middlesex",
            "postcode": "UB8 1JT"
        },
        "location": {
            "latitude": 51.5483863031401,
            "longitude": -0.481147492920196
        },
        "region": "London",
        "dx": {
            "reference": 45116,
            "centre": "UXBRIDGE"
        }
    }]
}, {
    "id": 18,
    "provider_name": "Philcox Gray & Co",
    "api_key": "d9094074-e8bc-29c6-546f-7bf4-164125f8f86e",
    "organisation_type": {
        "code": "LIMITED_PARTNERSHIP",
        "description": "Partnership"
    },
    "vat_registered": true,
    "provider_type": "FIRM",
    "fee_scheme": ["LGFS"],
    "account_status": "active",
    "suppliers": [{
        "name": "London (SE1 6BD)",
        "lgfs_account_number": "0A094C",
        "lead_office": true,
        "vat_number": 236259456,
        "address": {
            "address_line_1": "73-75 Newington Causeway",
            "city": "London",
            "postcode": "SE1 6BD"
        },
        "location": {
            "latitude": 51.4976966472035,
            "longitude": -0.0981982886122442
        },
        "region": "London",
        "dx": {
            "reference": 155285,
            "centre": "SOUTHWARK 13"
        }
    }]
}, {
    "id": 19,
    "agfs_account_number": "02AAC",
    "provider_name": "Robert Layton & Co",
    "api_key": "1c79d219-6d29-3ddd-da97-508b-7200e7e681f9",
    "organisation_type": {
        "code": "SOLE_TRADER",
        "description": "Sole Practitioner"
    },
    "vat_registered": true,
    "provider_type": "FIRM",
    "fee_scheme": ["LGFS", "AGFS"],
    "account_status": "active",
    "suppliers": [{
        "name": "London (W3 9BY)",
        "lgfs_account_number": "0A096E",
        "lead_office": true,
        "vat_number": 527792217,
        "address": {
            "address_line_1": "239 High Street",
            "address_line_2": "Acton",
            "city": "London",
            "postcode": "W3 9BY"
        },
        "location": {
            "latitude": 51.5080841563121,
            "longitude": -0.274450774770169
        },
        "region": "London",
        "dx": {
            "reference": 80264,
            "centre": "ACTON"
        }
    }]
}, {
    "id": 23,
    "provider_name": "Kingsley Napley LLP",
    "api_key": "ef759a3f-ac3a-6c3c-4552-2000-0ff89c7f275d",
    "organisation_type": {
        "code": "LLP",
        "description": "Limited Liability Partnership"
    },
    "vat_registered": true,
    "provider_type": "FIRM",
    "fee_scheme": ["LGFS"],
    "account_status": "active",
    "suppliers": [{
        "name": "London (EC1M 4AJ)",
        "lgfs_account_number": "0A113Y",
        "lead_office": true,
        "vat_number": 232815478,
        "address": {
            "address_line_1": "Knights Quarter",
            "address_line_2": "14 St John'S Lane",
            "city": "London",
            "postcode": "EC1M 4AJ"
        },
        "location": {
            "latitude": 51.5214183960713,
            "longitude": -0.102601264482805
        },
        "region": "London",
        "dx": {
            "reference": 22,
            "centre": "LONDON/CHANCERY LANE"
        }
    }]
}, {
    "id": 24,
    "provider_name": "Ronald Fletcher Baker LLP",
    "api_key": "49816970-ca32-8276-4350-0278-892f96742ae1",
    "organisation_type": {
        "code": "LLP",
        "description": "Limited Liability Partnership"
    },
    "vat_registered": true,
    "provider_type": "FIRM",
    "fee_scheme": ["LGFS"],
    "account_status": "active",
    "suppliers": [{
        "name": "London (W1U 6RF)",
        "lgfs_account_number": "2M293A",
        "lead_office": false,
        "vat_number": 220679863,
        "address": {
            "address_line_1": "77A Baker Street",
            "city": "London",
            "postcode": "W1U 6RF"
        },
        "location": {
            "latitude": 51.5197903191901,
            "longitude": -0.156707484520231
        },
        "region": "London",
        "dx": {
            "reference": 42722,
            "centre": "OXFORD CIRCUS NORTH"
        }
    }, {
        "name": "London (EC1V 9DR)",
        "lgfs_account_number": "0A122H",
        "lead_office": true,
        "vat_number": 220679863,
        "address": {
            "address_line_1": "326-328 Old Street",
            "city": "London",
            "postcode": "EC1V 9DR"
        },
        "location": {
            "latitude": 51.5265983826739,
            "longitude": -0.0816119715635112
        },
        "region": "London",
        "dx": {
            "reference": 137773,
            "centre": "FINSBURY 5"
        }
    }]
}, {
    "id": 31,
    "agfs_account_number": "02ABG",
    "provider_name": "Edward Fail Bradshaw & Waterson",
    "api_key": "3af5f189-dd61-f232-592a-979a-42e65df60801",
    "organisation_type": {
        "code": "LIMITED_PARTNERSHIP",
        "description": "Partnership"
    },
    "vat_registered": true,
    "provider_type": "FIRM",
    "fee_scheme": ["LGFS", "AGFS"],
    "account_status": "active",
    "suppliers": [{
        "name": "London (EC3N 1LS)",
        "lgfs_account_number": "1J181T",
        "lead_office": false,
        "vat_number": 248134955,
        "address": {
            "address_line_1": "150 Minories",
            "city": "London",
            "postcode": "EC3N 1LS"
        },
        "location": {
            "latitude": 51.5130533031772,
            "longitude": -0.0759838898994555
        },
        "region": "London",
        "dx": {
            "reference": 300701,
            "centre": "TOWER HAMLETS"
        }
    }, {
        "name": "London (E1 0LG)",
        "lgfs_account_number": "0A246T",
        "lead_office": true,
        "vat_number": 248134955,
        "address": {
            "address_line_1": "402 Commercial Road",
            "address_line_2": "Stepney",
            "city": "London",
            "postcode": "E1 0LG"
        },
        "location": {
            "latitude": 51.5134396438207,
            "longitude": -0.0492905467526196
        },
        "region": "London",
        "dx": {
            "reference": 300701,
            "centre": "TOWER HAMLETS"
        }
    }]
}, {
    "id": 35,
    "agfs_account_number": "02ABH",
    "provider_name": "Whitelock & Storr",
    "api_key": "f7b7f7bb-d933-a089-38fa-9cb4-1aea2baf2e82",
    "organisation_type": {
        "code": "LIMITED_PARTNERSHIP",
        "description": "Partnership"
    },
    "vat_registered": true,
    "provider_type": "FIRM",
    "fee_scheme": ["LGFS", "AGFS"],
    "account_status": "active",
    "suppliers": [{
        "name": "London (N12 8QJ)",
        "lgfs_account_number": "0A282G",
        "lead_office": true,
        "vat_number": 233683264,
        "address": {
            "address_line_1": "Solar House",
            "address_line_2": "915 High Road",
            "city": "London",
            "postcode": "N12 8QJ"
        },
        "location": {
            "latitude": 51.6197254012529,
            "longitude": -0.177016261556329
        },
        "region": "London",
        "dx": {
            "reference": 152740,
            "centre": "FINCHLEY 3"
        }
    }]
}, {
    "id": 37,
    "provider_name": "Powell & Co Solicitors LLP",
    "api_key": "c993475c-5532-6534-5a82-db2b-e289d000aa2f",
    "organisation_type": {
        "code": "LLP",
        "description": "Limited Liability Partnership"
    },
    "vat_registered": true,
    "provider_type": "FIRM",
    "fee_scheme": ["LGFS"],
    "account_status": "active",
    "suppliers": [{
        "name": "London (SE18 6GH)",
        "lgfs_account_number": "0A289P",
        "lead_office": true,
        "vat_number": 577951778,
        "address": {
            "address_line_1": "Verbruggens House",
            "address_line_2": "No 1 Street",
            "address_line_3": "Royal Arsenal Riverside",
            "city": "London",
            "postcode": "SE18 6GH"
        },
        "location": {
            "latitude": 51.4922654095161,
            "longitude": 0.0690702095569422
        },
        "region": "London",
        "dx": {
            "reference": 33318,
            "centre": "WOOLWICH"
        }
    }]
}, {
    "id": 40,
    "provider_name": "Deighton Guedalla",
    "api_key": "cf7b1e9d-3a57-2d4e-4bdc-fc48-53ed74d29bec",
    "organisation_type": {
        "code": "LIMITED_PARTNERSHIP",
        "description": "Partnership"
    },
    "vat_registered": true,
    "provider_type": "FIRM",
    "fee_scheme": ["LGFS"],
    "account_status": "active",
    "suppliers": [{
        "name": "London (EC1V 2QA)",
        "lgfs_account_number": "0A310M",
        "lead_office": true,
        "vat_number": 577478284,
        "address": {
            "address_line_1": "382 City Road",
            "city": "London",
            "postcode": "EC1V 2QA"
        },
        "location": {
            "latitude": 51.531076612311,
            "longitude": -0.103727989207576
        },
        "region": "London",
        "dx": {
            "reference": 146640,
            "centre": "ISLINGTON 4"
        }
    }]
}, {
    "id": 41,
    "provider_name": "Curwens LLP",
    "api_key": "ed452fdc-f066-8a75-5e09-7c1f-b5a313ebc0cb",
    "organisation_type": {
        "code": "LLP",
        "description": "Limited Liability Partnership"
    },
    "vat_registered": true,
    "provider_type": "FIRM",
    "fee_scheme": ["LGFS"],
    "account_status": "active",
    "suppliers": [{
        "name": "Hoddesdon (EN11 8SX)",
        "lgfs_account_number": "2M694L",
        "lead_office": false,
        "vat_number": 232163500,
        "address": {
            "address_line_1": "Estate House",
            "address_line_2": "19 High Street",
            "city": "Hoddesdon",
            "postcode": "EN11 8SX"
        },
        "location": {
            "latitude": 51.758098131757,
            "longitude": -0.0128555145173542
        },
        "region": "East of England",
        "dx": {
            "reference": 80651,
            "centre": "HODDESDON"
        }
    }, {
        "name": "Enfield (EN2 7HT)",
        "lgfs_account_number": "0A311N",
        "lead_office": true,
        "vat_number": 232163500,
        "address": {
            "address_line_1": "Crossfield House",
            "address_line_2": "Gladbeck Way",
            "city": "Enfield",
            "postcode": "EN2 7HT"
        },
        "location": {
            "latitude": 51.6529787666514,
            "longitude": -0.0921101469849625
        },
        "region": "London",
        "dx": {
            "reference": 142501,
            "centre": "ENFIELD"
        }
    }]
}, {
    "id": 42,
    "provider_name": "Michaels & Co Law Ltd",
    "api_key": "527ab7fb-7ecc-7190-ba0c-cd14-fa0e1e27ef80",
    "organisation_type": {
        "code": "LTD",
        "description": "Private Limited Company"
    },
    "vat_registered": true,
    "provider_type": "FIRM",
    "fee_scheme": ["LGFS"],
    "account_status": "active",
    "suppliers": [{
        "name": "Woodford Green (IG8 0PL)",
        "lgfs_account_number": "0A312P",
        "lead_office": true,
        "vat_number": 524469045,
        "address": {
            "address_line_1": "1 Churchwood Gardens",
            "city": "Woodford Green",
            "county": "Essex",
            "postcode": "IG8 0PL"
        },
        "location": {
            "latitude": 51.6152098338903,
            "longitude": 0.0265130065919781
        },
        "region": "London"
    }]
}]