[
    {
        "id": 1,
        "name": "HMP Altcourse",
        "address": {
            "address_line_1": "Higher Lane",
            "address_line_2": "Fazakerley",
            "city": "Liverpool",
            "postcode": "L9 7LH"
        },
        "region": "North West",
        "location": {
            "latitude": 53.4609314619701,
            "longitude": -2.9360319938289
        },
        "type": ["HMP"],
        "category": ["B"],
        "other_names": [],
        "abbreviations": []
    },
    {
        "id": 2,
        "name": "HMP Ashfield",
        "address": {
            "address_line_1": "Shortwood Road",
            "address_line_2": "Pucklechurch",
            "city": "Bristol",
            "postcode": "BS16 9QJ"
        },
        "region": "South West",
        "location": {
            "latitude": 51.4824236228024,
            "longitude": -2.43886899815034
        },
        "type": ["HMP"],
        "category": ["C"],
        "other_names": [],
        "abbreviations": []
    },
    {
        "id": 3,
        "name": "HMP Askham Grange",
        "address": {
            "address_line_1": "Askham Richard",
            "city": "York",
            "postcode": "YO23 3FT"
        },
        "region": "Yorkshire and The Humber",
        "location": {
            "latitude": 53.9259193594964,
            "longitude": -1.18409152857516
        },
        "type": ["HMP"],
        "category": ["D"],
        "other_names": [],
        "abbreviations": []
    },
    {
        "id": 4,
        "name": "HMP/YOI Aylesbury",
        "address": {
            "address_line_1": "Bierton Road",
            "city": "Aylesbury",
            "postcode": "HP20 1EH"
        },
        "region": "South East",
        "location": {
            "latitude": 51.8226024234016,
            "longitude": -0.801736323733683
        },
        "type": ["HMP","YOI"],
        "category": ["HMYOI"],
        "other_names": [],
        "abbreviations": []
    },
    {
        "id": 5,
        "name": "HMP Bedford",
        "address": {
            "address_line_1": "St Loyes Street",
            "city": "Bedford",
            "postcode": "MK40 1HG"
        },
        "region": "East of England",
        "location": {
            "latitude": 52.1393221762199,
            "longitude": -0.470231835405451
        },
        "type": ["HMP"],
        "category": ["B"],
        "other_names": [],
        "abbreviations": []
    },
    {
        "id": 6,
        "name": "HMP Belmarsh",
        "address": {
            "address_line_1": "Western Way",
            "address_line_2": "Thamesmead",
            "city": "London",
            "postcode": "SE28 0EB"
        },
        "region": "London",
        "location": {
            "latitude": 51.496845960123,
            "longitude": -0.801736323733683
        },
        "type": ["HMP"],
        "category": ["A"],
        "other_names": [],
        "abbreviations": []
    },
    {
        "id": 7,
        "name": "HMP Berwyn",
        "address": {
            "address_line_1": "Bridge Road",
            "address_line_2": "Wrexham Industrial Estate",
            "city": "Wrexham",
            "postcode": "LL13 9QE"
        },
        "region": "Wales",
        "location": {
            "latitude": 53.0351693413513,
            "longitude": -2.9269916462249
        },
        "type": ["HMP"],
        "category": ["C"],
        "other_names": [],
        "abbreviations": []
    },
    {
        "id": 8,
        "name": "HMP Birmingham",
        "address": {
            "address_line_1": "Winson Green Road",
            "city": "Birmingham",
            "postcode": "B18 4AS"
        },
        "region": "West Midlands",
        "location": {
            "latitude": 52.4924905232909,
            "longitude": -1.93851015174654
        },
        "type": ["HMP"],
        "category": ["B","C"],
        "other_names": [],
        "abbreviations": []
    },
    {
        "id": 9,
        "name": "HMP Blantyre House",
        "address": {
            "address_line_1": "Horden",
            "city": "Goudhurst",
            "postcode": "TN17 2NH"
        },
        "region": "South East",
        "location": {
            "latitude": 51.1343347383702,
            "longitude": 0.504419824015059
        },
        "type": ["HMP"],
        "category": ["C","D"],
        "other_names": [],
        "abbreviations": []
    },
    {
        "id": 10,
        "name": "HMP/YOI Brinsford",
        "address": {
            "address_line_1": "New Road",
            "address_line_2": "Featherstone",
            "city": "Wolverhampton",
            "postcode": "WV10 7PY"
        },
        "region": "West Midlands",
        "location": {
            "latitude": 52.6501884229375,
            "longitude": -2.11241269485335
        },
        "type": ["HMP","YOI"],
        "category": ["HMYOI"],
        "other_names": [],
        "abbreviations": []
    },
    {
        "id": 11,
        "name": "HMP Bristol",
        "address": {
            "address_line_1": "19 Cambridge Road",
            "city": "Bristol",
            "postcode": "BS7 8PS"
        },
        "region": "South West",
        "location": {
            "latitude": 51.4806153631552,
            "longitude": -2.59065832849834
        },
        "type": ["HMP"],
        "category": ["B"],
        "other_names": [],
        "abbreviations": []
    },
    {
        "id": 12,
        "name": "HMP Brixton",
        "address": {
            "address_line_1": "Jebb Avenue",
            "address_line_2": "Brixton",
            "city": "London",
            "postcode": "SW2 5XF"
        },
        "region": "London",
        "location": {
            "latitude": 51.4518243998986,
            "longitude": -0.125494003314765
        },
        "type": ["HMP"],
        "category": ["C","training"],
        "other_names": [],
        "abbreviations": []
    },
    {
        "id": 13,
        "name": "HMP Bronzefield",
        "address": {
            "address_line_1": "Woodthorpe Road",
            "city": "Ashford",
            "postcode": "TW15 3JZ"
        },
        "region": "South East",
        "location": {
            "latitude": 51.4329217285523,
            "longitude": -0.482850401181727
        },
        "type": ["HMP"],
        "category": ["A"],
        "other_names": [],
        "abbreviations": []
    },
    {
        "id": 14,
        "name": "HMP Buckley Hall",
        "address": {
            "address_line_1": "Buckley Hall Road",
            "city": "Rochdale",
            "postcode": "OL12 9DP"
        },
        "region": "North West",
        "location": {
            "latitude": 53.634964981877,
            "longitude": -2.1450543353111
        },
        "type": ["HMP"],
        "category": ["C"],
        "other_names": [],
        "abbreviations": []
    },
    {
        "id": 15,
        "name": "HMP Bullingdon",
        "address": {
            "address_line_1": "PO Box 50",
            "city": "Bicester",
            "postcode": "OX25 1PZ"
        },
        "region": "South East",
        "location": {
            "latitude": 51.8484984095043,
            "longitude": -1.09442303748818
        },
        "type": ["HMP"],
        "category": ["B","C"],
        "other_names": [],
        "abbreviations": []
    },
    {
        "id": 16,
        "name": "HMP Bure",
        "address": {
            "address_line_1": "Jaguar Drive",
            "address_line_2": "Badersfield",
            "city": "Norwich",
            "postcode": "NR10 5GB"
        },
        "region": "East of England",
        "location": {
            "latitude": 52.7590099433566,
            "longitude": 1.34700604353384
        },
        "type": ["HMP"],
        "category": ["C"],
        "other_names": [],
        "abbreviations": []
    },
    {
        "id": 17,
        "name": "HMP Cardiff",
        "address": {
            "address_line_1": "Knox Road",
            "city": "Cardiff",
            "postcode": "CF24 0UG"
        },
        "region": "Wales",
        "location": {
            "latitude": 51.4810668775817,
            "longitude": -3.16827159817859
        },
        "type": ["HMP"],
        "category": ["B"],
        "other_names": [],
        "abbreviations": []
    },
    {
        "id": 18,
        "name": "HMP Channings Wood",
        "address": {
            "address_line_1": "Denbury",
            "city": "Newton Abbot",
            "postcode": "TQ12 6DW"
        },
        "region": "South West",
        "location": {
            "latitude": 50.5104983392776,
            "longitude": -3.65182120947705
        },
        "type": ["HMP"],
        "category": ["C"],
        "other_names": [],
        "abbreviations": []
    },
    {
        "id": 19,
        "name": "HMP Chelmsford",
        "address": {
            "address_line_1": "200 Springfield Road",
            "city": "Chelmsford",
            "postcode": "CM2 6LQ"
        },
        "region": "East of England",
        "location": {
            "latitude": 51.736723555647,
            "longitude": 0.484654597721016
        },
        "type": ["HMP"],
        "category": ["B"],
        "other_names": [],
        "abbreviations": []
    },
    {
        "id": 20,
        "name": "HMP Coldingley",
        "address": {
            "address_line_1": "Shaftesbury Road",
            "address_line_2": "Bisley",
            "city": "Woking",
            "postcode": "GU24 9EX"
        },
        "region": "South East",
        "location": {
            "latitude": 51.3219077473146,
            "longitude": -0.643059617602481
        },
        "type": ["HMP"],
        "category": ["C"],
        "other_names": [],
        "abbreviations": []
    },
    {
        "id": 21,
        "name": "HMP/YOI Cookham Wood",
        "address": {
            "address_line_1": "Sir Evelyn Road",
            "city": "Rochester",
            "postcode": "ME1 3LU"
        },
        "region": "South East",
        "location": {
            "latitude": 51.3652017735619,
            "longitude": 0.494370467543523
        },
        "type": ["HMP","YOI"],
        "category": ["HMYOI"],
        "other_names": [],
        "abbreviations": []
    },
    {
        "id": 22,
        "name": "HMP Dartmoor",
        "address": {
            "address_line_1": "Princetown",
            "city": "Yelverton",
            "postcode": "PL20 6RR"
        },
        "region": "South West",
        "location": {
            "latitude": 50.5492297978663,
            "longitude": -3.9975303417085
        },
        "type": ["HMP"],
        "category": ["C"],
        "other_names": [],
        "abbreviations": []
    },
    {
        "id": 23,
        "name": "HMP/YOI Deerbolt",
        "address": {
            "address_line_1": "Bowes Road",
            "city": "Barnard Castle",
            "postcode": "DL12 9BG"
        },
        "region": "North East",
        "location": {
            "latitude": 54.5440337986543,
            "longitude": -1.93670009232445
        },
        "type": ["HMP","YOI"],
        "category": ["HMYOI"],
        "other_names": [],
        "abbreviations": []
    },
    {
        "id": 24,
        "name": "HMP Doncaster",
        "address": {
            "address_line_1": "Off North Bridge Road",
            "address_line_2": "Marshgate",
            "city": "Doncaster",
            "postcode": "DN5 8UX"
        },
        "region": "Yorkshire and The Humber",
        "location": {
            "latitude": 53.5251799201971,
            "longitude": -1.14500320426353
        },
        "type": ["HMP"],
        "category": ["B"],
        "other_names": [],
        "abbreviations": []
    },
    {
        "id": 25,
        "name": "HMP Dovegate",
        "address": {
            "city": "Uttoxeter",
            "postcode": "ST14 8XR"
        },
        "region": "West Midlands",
        "location": {
            "latitude": 52.8706093929077,
            "longitude": -1.78224339100436
        },
        "type": ["HMP"],
        "category": ["B"],
        "other_names": [],
        "abbreviations": []
    },
    {
        "id": 26,
        "name": "HMP Downview",
        "address": {
            "address_line_1": "Sutton Lane",
            "city": "Sutton",
            "postcode": "SM2 5PD"
        },
        "region": "South East",
        "location": {
            "latitude": 51.3390845669156,
            "longitude": -0.188444857312818
        },
        "type": ["HMP"],
        "category": ["C"],
        "other_names": [],
        "abbreviations": []
    },
    {
        "id": 27,
        "name": "HMP Drake Hall",
        "address": {
            "city": "Eccleshall",
            "postcode": "ST21 6LQ"
        },
        "region": "West Midlands",
        "location": {
            "latitude": 52.8788347853823,
            "longitude": -2.24083505936835
        },
        "type": ["HMP"],
        "category": ["C"],
        "other_names": [],
        "abbreviations": []
    },
    {
        "id": 28,
        "name": "HMP Durham",
        "address": {
            "address_line_1": "Old Elvet",
            "city": "Durham",
            "postcode": "DH1 3HU"
        },
        "region": "North East",
        "location": {
            "latitude": 54.7737223438059,
            "longitude": -1.56937453215415
        },
        "type": ["HMP"],
        "category": ["B"],
        "other_names": [],
        "abbreviations": []
    },
    {
        "id": 29,
        "name": "HMP East Sutton Park",
        "address": {
            "address_line_1": "Sutton Valence",
            "city": "Maidstone",
            "postcode": "ME17 3DF"
        },
        "region": "South East",
        "location": {
            "latitude": 51.2151549756074,
            "longitude": 0.613670680957609
        },
        "type": ["HMP"],
        "category": ["D"],
        "other_names": [],
        "abbreviations": []
    },
    {
        "id": 30,
        "name": "HMP Eastwood Park",
        "address": {
            "address_line_1": "Falfield",
            "city": "Wotton-under-Edge",
            "postcode": "GL12 8DB"
        },
        "region": "South West",
        "location": {
            "latitude": 51.6344576101503,
            "longitude": -2.46738380950869
        },
        "type": ["HMP"],
        "category": ["Semi-Open"],
        "other_names": [],
        "abbreviations": []
    },
    {
        "id": 31,
        "name": "HMP Erlestoke",
        "address": {
            "address_line_1": "Erlestoke",
            "city": "Devizes",
            "postcode": "SN10 5TU"
        },
        "region": "South West",
        "location": {
            "latitude": 51.2846652237031,
            "longitude": -2.04415683668241
        },
        "type": ["HMP"],
        "category": ["C"],
        "other_names": [],
        "abbreviations": []
    },
    {
        "id": 32,
        "name": "HMP Exeter",
        "address": {
            "address_line_1": "30 New North Road",
            "city": "Exeter",
            "postcode": "EX4 4EX"
        },
        "region": "South West",
        "location": {
            "latitude": 50.7280401453926,
            "longitude": -3.53220840084221
        },
        "type": ["HMP"],
        "category": ["B"],
        "other_names": [],
        "abbreviations": []
    },
    {
        "id": 33,
        "name": "HMP Featherstone",
        "address": {
            "address_line_1": "New Road",
            "address_line_2": "Featherstone",
            "city": "Wolverhampton",
            "postcode": "WV10 7PU"
        },
        "region": "West Midlands",
        "location": {
            "latitude": 52.6501884229375,
            "longitude": -2.11241269485335
        },
        "type": ["HMP"],
        "category": ["C"],
        "other_names": [],
        "abbreviations": []
    },
    {
        "id": 34,
        "name": "HMP/YOI Feltham",
        "address": {
            "address_line_1": "Bedfont Road",
            "city": "Feltham",
            "postcode": "TW13 4ND"
        },
        "region": "London",
        "location": {
            "latitude": 51.4415153552646,
            "longitude": -0.43407506644281
        },
        "type": ["HMP","YOI"],
        "category": ["HMYOI"],
        "other_names": [],
        "abbreviations": []
    },
    {
        "id": 35,
        "name": "HMP Ford",
        "address": {
            "city": "Arundel",
            "postcode": "BN18 0BX"
        },
        "region": "South East",
        "location": {
            "latitude": 50.8162171745574,
            "longitude": -0.579803751969969
        },
        "type": ["HMP"],
        "category": ["D"],
        "other_names": [],
        "abbreviations": []
    },
    {
        "id": 36,
        "name": "HMP Forest Bank",
        "address": {
            "address_line_1": "Agecroft Road",
            "address_line_2": "Pendlebury",
            "city": "Salford",
            "postcode": "M27 8FB"
        },
        "region": "North West",
        "location": {
            "latitude": 53.5142549702296,
            "longitude": -2.30209355081956
        },
        "type": ["HMP"],
        "category": ["B"],
        "other_names": [],
        "abbreviations": []
    },
    {
        "id": 37,
        "name": "HMP Foston Hall",
        "address": {
            "address_line_1": "Foston",
            "city": "Derby",
            "postcode": "DE65 5DN",
            "region": "East Midlands"
        },
        "location": {
            "latitude": 52.8820968016708,
            "longitude": -1.72536136525137
        },
        "type": ["HMP"],
        "category": ["B"],
        "other_names": [],
        "abbreviations": []
    },
    {
        "id": 38,
        "name": "HMP Frankland",
        "address": {
            "address_line_1": "Brasside",
            "city": "Durham",
            "postcode": "DH1 5YD"
        },
        "region": "North East",
        "location": {
            "latitude": 54.8058201571235,
            "longitude": -1.55140704833274
        },
        "type": ["HMP"],
        "category": ["A"],
        "other_names": [],
        "abbreviations": []
    },
    {
        "id": 39,
        "name": "HMP Full Sutton",
        "address": {
            "city": "York",
            "postcode": "YO41 1PS"
        },
        "region": "Yorkshire and The Humber",
        "location": {
            "latitude": 53.9844582168659,
            "longitude": -0.869907578161689
        },
        "type": ["HMP"],
        "category": ["A"],
        "other_names": [],
        "abbreviations": []
    },
    {
        "id": 40,
        "name": "HMP Garth",
        "address": {
            "address_line_1": "Ulnes Walton",
            "address_line_2": "Leyland",
            "city": "Preston",
            "postcode": "PR26 8NE"
        },
        "region": "North West",
        "location": {
            "latitude": 53.6806501967671,
            "longitude": -2.75809740597806
        },
        "type": ["HMP"],
        "category": ["B"],
        "other_names": [],
        "abbreviations": []
    },
    {
        "id": 41,
        "name": "HMP Gartree",
        "address": {
            "address_line_1": "Gallow Field Road",
            "city": "Market Harborough",
            "postcode": "LE16 7RP"
        },
        "region": "East Midlands",
        "location": {
            "latitude": 52.4956363575994,
            "longitude": -0.961495157333084
        },
        "type": ["HMP"],
        "category": ["B"],
        "other_names": [],
        "abbreviations": []
    },
    {
        "id": 42,
        "name": "HMP Grendon & Springhill",
        "address": {
            "city": "Grendon Underwood",
            "postcode": "HP18 0TL"
        },
        "region": "South East",
        "location": {
            "latitude": 51.8921705743765,
            "longitude": -1.00984318053446
        },
        "type": ["HMP"],
        "category": ["B"],
        "other_names": [],
        "abbreviations": []
    },
    {
        "id": 43,
        "name": "HMP Guys Marsh",
        "address": {
            "city": "Shaftesbury",
            "postcode": "SP7 0AH"
        },
        "region": "South West",
        "location": {
            "latitude": 50.9853738022197,
            "longitude": -2.21982666399718
        },
        "type": ["HMP"],
        "category": ["C"],
        "other_names": [],
        "abbreviations": []
    },
    {
        "id": 44,
        "name": "HMP Hatfield",
        "address": {
            "address_line_1": "Thorne Road",
            "address_line_2": "Hatfield",
            "city": "Doncaster",
            "postcode": "DN7 6EL"
        },
        "region": "Yorkshire and The Humber",
        "location": {
            "latitude": 53.5867234962888,
            "longitude": -0.980701679193782
        },
        "type": ["HMP"],
        "category": ["D"],
        "other_names": [],
        "abbreviations": []
    },
    {
        "id": 45,
        "name": "HMP Haverigg",
        "address": {
            "address_line_1": "North Lane",
            "city": "Millom",
            "postcode": "LA18 4NA"
        },
        "region": "North West",
        "location": {
            "latitude": 54.2006676088168,
            "longitude": -3.31242491884869
        },
        "type": ["HMP"],
        "category": ["C"],
        "other_names": [],
        "abbreviations": []
    },
    {
        "id": 46,
        "name": "HMP Hewell",
        "address": {
            "address_line_1": "Hewell Lane",
            "city": "Redditch",
            "postcode": "B97 6QS"
        },
        "region": "West Midlands",
        "location": {
            "latitude": 52.3247870236754,
            "longitude": -1.98658900408398
        },
        "type": ["HMP"],
        "category": ["B","C","D"],
        "other_names": [],
        "abbreviations": []
    },
    {
        "id": 47,
        "name": "HMP High Down",
        "address": {
            "address_line_1": "High Down Lane",
            "city": "Sutton",
            "postcode": "SM2 5PJ"
        },
        "region": "South East",
        "location": {
            "latitude": 51.3368408697601,
            "longitude": -0.188734298133275
        },
        "type": ["HMP"],
        "category": ["B"],
        "other_names": [],
        "abbreviations": []
    },
    {
        "id": 48,
        "name": "HMP Highpoint North",
        "address": {
            "address_line_1": "Stradishall",
            "city": "Newmarket",
            "postcode": "CB8 9YG"
        },
        "region": "East of England",
        "location": {
            "latitude": 52.1374089981312,
            "longitude": 0.513840308547088
        },
        "type": ["HMP"],
        "category": ["C"],
        "other_names": [],
        "abbreviations": []
    },
    {
        "id": 49,
        "name": "HMP Highpoint South",
        "address": {
            "address_line_1": "Stradishall",
            "city": "Newmarket",
            "postcode": "CB8 9YG"
        },
        "region": "East of England",
        "location": {
            "latitude": 52.1374089981312,
            "longitude": 0.513840308547088
        },
        "type": ["HMP"],
        "category": ["C"],
        "other_names": [],
        "abbreviations": []
    },
    {
        "id": 50,
        "name": "HMP/YOI Hindley",
        "address": {
            "address_line_1": "Gibson Street",
            "address_line_2": "Bickershaw",
            "city": "Wigan",
            "postcode": "WN2 5TH"
        },
        "region": "North West",
        "location": {
            "latitude": 53.5177566099255,
            "longitude": -2.5769496811806
        },
        "type": ["HMP","YOI"],
        "category": ["HMYOI"],
        "other_names": [],
        "abbreviations": []
    },
    {
        "id": 51,
        "name": "HMP Hollesley Bay",
        "address": {
            "city": "Woodbridge",
            "postcode": "IP12 3JW"
        },
        "region": "East of England",
        "location": {
            "latitude": 52.0515728586129,
            "longitude": 1.45123770416953
        },
        "type": ["HMP"],
        "category": ["D"],
        "other_names": [],
        "abbreviations": []
    },
    {
        "id": 52,
        "name": "HMP Holme House",
        "address": {
            "address_line_1": "Holme House Road",
            "city": "Stockton-on-Tees",
            "postcode": "TS18 2QU"
        },
        "region": "North East",
        "location": {
            "latitude": 54.5777988845576,
            "longitude": -1.29311248397432
        },
        "type": ["HMP"],
        "category": ["B"],
        "other_names": [],
        "abbreviations": []
    },
    {
        "id": 53,
        "name": "HMP Hull",
        "address": {
            "address_line_1": "Hedon Road",
            "city": "Hull",
            "postcode": "HU9 5LS"
        },
        "region": "Yorkshire and The Humber",
        "location": {
            "latitude": 53.7482644763675,
            "longitude": -0.29677548045899
        },
        "type": ["HMP"],
        "category": ["B"],
        "other_names": [],
        "abbreviations": []
    },
    {
        "id": 54,
        "name": "HMP Humber",
        "address": {
            "city": "Everthorpe",
            "postcode": "HU15 2JZ"
        },
        "region": "Yorkshire and The Humber",
        "location": {
            "latitude": 53.7678342139214,
            "longitude": -0.633800029904265
        },
        "type": ["HMP"],
        "category": ["C"],
        "other_names": [],
        "abbreviations": []
    },
    {
        "id": 55,
        "name": "HMP/YOI Huntercombe",
        "address": {
            "address_line_1": "Nuffield",
            "city": "Henley-on-Thames",
            "postcode": "RG9 5SB"
        },
        "region": "South East",
        "location": {
            "latitude": 51.5876581860303,
            "longitude": -1.01835194429939
        },
        "type": ["HMP","YOI"],
        "category": ["HMYOI"],
        "other_names": [],
        "abbreviations": []
    },
    {
        "id": 56,
        "name": "HMP/YOI Isis",
        "address": {
            "address_line_1": "Western Way",
            "city": "Thamesmead",
            "postcode": "SE28 0NZ"
        },
        "region": "London",
        "location": {
            "latitude": 51.497246315317,
            "longitude": 0.0969724419503986
        },
        "type": ["HMP","YOI"],
        "category": ["HMYOI"],
        "other_names": [],
        "abbreviations": []
    },
    {
        "id": 57,
        "name": "HMP Isle of Wight (Albany)",
        "address": {
            "address_line_1": "Albany House",
            "address_line_2": "55 Parkhurst Road",
            "city": "Newport",
            "postcode": "PO30 5RS"
        },
        "region": "South East",
        "location": {
            "latitude": 50.7119995079994,
            "longitude": -1.30489627810764
        },
        "type": ["HMP"],
        "category": ["B"],
        "other_names": [],
        "abbreviations": []
    },
    {
        "id": 58,
        "name": "HMP Isle of Wight (Parkhurst)",
        "address": {
            "address_line_1": "Clissold Road",
            "city": "Newport",
            "postcode": "PO30 5NX"
        },
        "region": "South East",
        "location": {
            "latitude": 50.714434,
            "longitude": -1.306404
        },
        "type": ["HMP"],
        "category": ["B"],
        "other_names": [],
        "abbreviations": []
    },
    {
        "id": 59,
        "name": "HMP Kennet",
        "address": {
            "address_line_1": "Parkbourne",
            "address_line_2": "Maghull",
            "city": "Liverpool",
            "postcode": "L31 1HX"
        },
        "region": "North West",
        "location": {
            "latitude": 53.515561,
            "longitude": -2.910406
        },
        "type": ["HMP"],
        "category": ["C"],
        "other_names": [],
        "abbreviations": []
    },
    {
        "id": 60,
        "name": "HMP Kirkham",
        "address": {
            "address_line_1": "Freckleton Road",
            "address_line_2": "Kirkham",
            "city": "Preston",
            "postcode": "PR4 2RN"
        },
        "region": "North West",
        "location": {
            "latitude": 53.7749092889196,
            "longitude": -2.87320536668755
        },
        "type": ["HMP"],
        "category": ["D"],
        "other_names": [],
        "abbreviations": []
    },
    {
        "id": 61,
        "name": "HMP Kirklevington Grange",
        "address": {
            "address_line_1": "Yarm",
            "city": "Cleveland",
            "postcode": "TS15 9PA"
        },
        "region": "North East",
        "location": {
            "latitude": 54.49502124614,
            "longitude": -1.33960831053748
        },
        "type": ["HMP"],
        "category": ["C","D"],
        "other_names": [],
        "abbreviations": []
    },
    {
        "id": 62,
        "name": "HMP Lancaster Farms",
        "address": {
            "address_line_1": "Stone Row Head",
            "address_line_2": "Off Quernmore Road",
            "city": "Lancaster",
            "postcode": "LA1 3QZ"
        },
        "region": "North West",
        "location": {
            "latitude": 54.0527042164365,
            "longitude": -2.77206666236655
        },
        "type": ["HMP"],
        "category": ["C"],
        "other_names": [],
        "abbreviations": []
    },
    {
        "id": 63,
        "name": "HMP Leeds",
        "address": {
            "address_line_1": "2 Gloucester Terrace",
            "address_line_2": "Stanningley Road",
            "city": "Leeds",
            "postcode": "LS12 2TJ"
        },
        "region": "Yorkshire and The Humber",
        "location": {
            "latitude": 53.7957301948616,
            "longitude": -1.57617031962449
        },
        "type": ["HMP"],
        "category": ["B"],
        "other_names": [],
        "abbreviations": []
    },
    {
        "id": 64,
        "name": "HMP Leicester",
        "address": {
            "address_line_1": "116 Welford Road",
            "city": "Leicester",
            "postcode": "LE2 7AJ"
        },
        "region": "East Midlands",
        "location": {
            "latitude": 52.6277029607511,
            "longitude": -1.132544738565
        },
        "type": ["HMP"],
        "category": ["B"],
        "other_names": [],
        "abbreviations": []
    },
    {
        "id": 65,
        "name": "HMP Lewes",
        "address": {
            "address_line_1": "1 Brighton Road",
            "city": "Lewes",
            "postcode": "BN7 1EA"
        },
        "region": "South East",
        "location": {
            "latitude": 50.8728673997146,
            "longitude": -0.0053027306298753
        },
        "type": ["HMP"],
        "category": ["B"],
        "other_names": [],
        "abbreviations": []
    },
    {
        "id": 66,
        "name": "HMP Leyhill",
        "address": {
            "city": "Wotton-under-Edge",
            "postcode": "GL12 8BT"
        },
        "region": "South West",
        "location": {
            "latitude": 51.6280387692528,
            "longitude": -2.43677732404991
        },
        "type": ["HMP"],
        "category": ["D"],
        "other_names": [],
        "abbreviations": []
    },
    {
        "id": 67,
        "name": "HMP Lincoln",
        "address": {
            "address_line_1": "Greetwell Road",
            "city": "Lincoln",
            "postcode": "LN2 4BD"
        },
        "region": "East Midlands",
        "location": {
            "latitude": 53.2353897816822,
            "longitude": -0.517999344886613
        },
        "type": ["HMP"],
        "category": ["B"],
        "other_names": [],
        "abbreviations": []
    },
    {
        "id": 68,
        "name": "HMP Lindholme",
        "address": {
            "address_line_1": "Bawtry Road",
            "address_line_2": "Hatfield Woodhouse",
            "city": "Doncaster",
            "postcode": "DN7 6EE"
        },
        "region": "Yorkshire and The Humber",
        "location": {
            "latitude": 53.5442783325212,
            "longitude": -0.970161362364964
        },
        "type": ["HMP"],
        "category": ["C","D"],
        "other_names": [],
        "abbreviations": []
    },
    {
        "id": 69,
        "name": "HMP Littlehey",
        "address": {
            "address_line_1": "Perry",
            "city": "Huntingdon",
            "postcode": "PE28 0SR"
        },
        "region": "East of England",
        "location": {
            "latitude": 52.2807948904948,
            "longitude": -0.312276201441525
        },
        "type": ["HMP"],
        "category": ["C"],
        "other_names": [],
        "abbreviations": []
    },
    {
        "id": 70,
        "name": "HMP Liverpool",
        "address": {
            "address_line_1": "68 Hornby Road",
            "city": "Liverpool",
            "postcode": "L9 3DF"
        },
        "region": "North West",
        "location": {
            "latitude": 53.4575481415991,
            "longitude": -2.96916637272259
        },
        "type": ["HMP"],
        "category": ["B","C"],
        "other_names": [],
        "abbreviations": []
    },
    {
        "id": 71,
        "name": "HMP Long Lartin",
        "address": {
            "address_line_1": "South Littleton",
            "city": "Evesham",
            "postcode": "WR11 8TZ"
        },
        "region": "West Midlands",
        "location": {
            "latitude": 52.109649285379,
            "longitude": -1.85498787651887
        },
        "type": ["HMP"],
        "category": ["A"],
        "other_names": [],
        "abbreviations": []
    },
    {
        "id": 72,
        "name": "HMP Low Newton",
        "address": {
            "address_line_1": "Brasside",
            "city": "Durham",
            "postcode": "DH1 5YA"
        },
        "region": "North East",
        "location": {
            "latitude": 54.8053620131142,
            "longitude": -1.55634374121339
        },
        "type": ["HMP"],
        "category": ["C"],
        "other_names": [],
        "abbreviations": []
    },
    {
        "id": 73,
        "name": "HMP Lowdham Grange",
        "address": {
            "address_line_1": "Old Epperstone Road",
            "city": "Lowdham",
            "postcode": "NG14 7DA"
        },
        "region": "East Midlands",
        "location": {
            "latitude": 53.0161316447932,
            "longitude": -1.0380214269235
        },
        "type": ["HMP"],
        "category": ["B"],
        "other_names": [],
        "abbreviations": []
    },
    {
        "id": 74,
        "name": "HMP Maidstone",
        "address": {
            "address_line_1": "36 County Road",
            "city": "Maidstone",
            "postcode": "ME14 1UZ"
        },
        "region": "South East",
        "location": {
            "latitude": 51.2782654557545,
            "longitude": 0.524760563334016
        },
        "type": ["HMP"],
        "category": ["C"],
        "other_names": [],
        "abbreviations": []
    },
    {
        "id": 75,
        "name": "HMP Manchester",
        "address": {
            "address_line_1": "1 Southall Street",
            "city": "Manchester",
            "postcode": "M60 9AH"
        },
        "region": "North West",
        "location": {
            "latitude": 53.4921918022234,
            "longitude": -2.24568639854618
        },
        "type": ["HMP"],
        "category": ["A"],
        "other_names": [],
        "abbreviations": []
    },
    {
        "id": 76,
        "name": "HMP Moorland",
        "address": {
            "address_line_1": "Bawtry Road",
            "address_line_2": "Hatfield Woodhouse",
            "city": "Doncaster",
            "postcode": "DN7 6BW"
        },
        "region": "Yorkshire and The Humber",
        "location": {
            "latitude": 53.5485774115838,
            "longitude": -0.971490860434871
        },
        "type": ["HMP"],
        "category": ["C"],
        "other_names": [],
        "abbreviations": []
    },
    {
        "id": 77,
        "name": "HMP New Hall",
        "address": {
            "address_line_1": "Dial Wood",
            "address_line_2": "Flockton",
            "city": "Wakefield",
            "postcode": "WF4 4XX"
        },
        "region": "Yorkshire and The Humber",
        "location": {
            "latitude": 53.6361441056955,
            "longitude": -1.612902930038
        },
        "type": ["HMP"],
        "category": ["C"],
        "other_names": [],
        "abbreviations": []
    },
    {
        "id": 78,
        "name": "HMP Northumberland",
        "address": {
            "city": "Morpeth",
            "postcode": "NE65 9XG"
        },
        "region": "North East",
        "location": {
            "latitude": 55.2960886884181,
            "longitude": -1.63530070012394
        },
        "type": ["HMP"],
        "category": ["C"],
        "other_names": [],
        "abbreviations": []
    },
    {
        "id": 79,
        "name": "HMP North Sea Camp",
        "address": {
            "address_line_1": "Croppers Lane",
            "address_line_2": "Freiston",
            "city": "Boston",
            "postcode": "PE22 0QX"
        },
        "region": "East Midlands",
        "location": {
            "latitude": 52.939965518226,
            "longitude": 0.0634345524010664
        },
        "type": ["HMP"],
        "category": ["D"],
        "other_names": [],
        "abbreviations": []
    },
    {
        "id": 80,
        "name": "HMP Norwich",
        "address": {
            "address_line_1": "Knox Road",
            "city": "Norwich",
            "postcode": "NR1 4LU"
        },
        "region": "East of England",
        "location": {
            "latitude": 52.6375689247212,
            "longitude": 1.31758519132688
        },
        "type": ["HMP"],
        "category": ["B","C"],
        "other_names": [],
        "abbreviations": []
    },
    {
        "id": 81,
        "name": "HMP Nottingham",
        "address": {
            "address_line_1": "Perry Road",
            "address_line_2": "Sherwood",
            "city": "Nottingham",
            "postcode": "NG5 3AG"
        },
        "region": "East Midlands",
        "location": {
            "latitude": 52.9845328454451,
            "longitude": -1.15505780352367
        },
        "type": ["HMP"],
        "category": ["B"],
        "other_names": [],
        "abbreviations": []
    },
    {
        "id": 82,
        "name": "HMP Oakwood",
        "address": {
            "address_line_1": "Oak Road",
            "city": "Featherstone",
            "postcode": "WV10 7QD"
        },
        "region": "West Midlands",
        "location": {
            "latitude": 52.6479584051403,
            "longitude": -2.11301296178853
        },
        "type": ["HMP"],
        "category": ["C"],
        "other_names": [],
        "abbreviations": []
    },
    {
        "id": 83,
        "name": "HMP Onley",
        "address": {
            "city": "Rugby",
            "postcode": "CV23 8AP"
        },
        "region": "East Midlands",
        "location": {
            "latitude": 52.3264655650228,
            "longitude": -1.24769091522494
        },
        "type": ["HMP"],
        "category": ["C"],
        "other_names": [],
        "abbreviations": []
    },
    {
        "id": 84,
        "name": "HMP Parc",
        "address": {
            "city": "Bridgend",
            "postcode": "CF35 6AP"
        },
        "region": "Wales",
        "location": {
            "latitude": 51.5309513144392,
            "longitude": -3.56314296521541
        },
        "type": ["HMP"],
        "category": ["B"],
        "other_names": [],
        "abbreviations": []
    },
    {
        "id": 85,
        "name": "HMP Pentonville",
        "address": {
            "address_line_1": "Caledonian Road",
            "city": "London",
            "postcode": "N7 8TT"
        },
        "region": "London",
        "location": {
            "latitude": 51.5450040541504,
            "longitude": -0.115883749009123
        },
        "type": ["HMP"],
        "category": ["B","C"],
        "other_names": [],
        "abbreviations": []
    },
    {
        "id": 86,
        "name": "HMP Peterborough",
        "address": {
            "address_line_1": "Saville Road",
            "address_line_2": "Westwood",
            "city": "Peterborough",
            "postcode": "PE3 7PD"
        },
        "region": "East of England",
        "location": {
            "latitude": 52.5865147463619,
            "longitude": -0.25996126087544
        },
        "type": ["HMP"],
        "category": ["B"],
        "other_names": [],
        "abbreviations": []
    },
    {
        "id": 87,
        "name": "HMP/YOI Portland",
        "address": {
            "address_line_1": "104 The Grove",
            "address_line_2": "Easton",
            "city": "Portland",
            "postcode": "DT5 1DL"
        },
        "region": "South West",
        "location": {
            "latitude": 50.5490329698229,
            "longitude": -2.41997821869808
        },
        "type": ["HMP","YOI"],
        "category": ["HMYOI"],
        "other_names": [],
        "abbreviations": []
    },
    {
        "id": 88,
        "name": "HMP Prescoed",
        "address": {
            "city": "Pontypool",
            "postcode": "NP4 0TB"
        },
        "region": "Wales",
        "location": {
            "latitude": 51.6783565362155,
            "longitude": -2.94303023546452
        },
        "type": ["HMP"],
        "category": ["D"],
        "other_names": [],
        "abbreviations": []
    },
    {
        "id": 89,
        "name": "HMP Preston",
        "address": {
            "address_line_1": "2 Ribbleton Lane",
            "city": "Preston",
            "postcode": "PR1 5AB"
        },
        "region": "North West",
        "location": {
            "latitude": 53.7614655824041,
            "longitude": -2.68936592569885
        },
        "type": ["HMP"],
        "category": ["B"],
        "other_names": [],
        "abbreviations": []
    },
    {
        "id": 90,
        "name": "HMP Ranby",
        "address": {
            "address_line_1": "Retford",
            "city": "Nottingham",
            "postcode": "DN22 8EU"
        },
        "region": "East Midlands",
        "location": {
            "latitude": 53.320064005877,
            "longitude": -0.996118033355188
        },
        "type": ["HMP"],
        "category": ["C"],
        "other_names": [],
        "abbreviations": []
    },
    {
        "id": 91,
        "name": "HMP Risley",
        "address": {
            "address_line_1": "Warrington Road",
            "address_line_2": "Risley",
            "city": "Warrington",
            "postcode": "WA3 6BP"
        },
        "region": "North West",
        "location": {
            "latitude": 53.4387703960656,
            "longitude": -2.52513286404161
        },
        "type": ["HMP"],
        "category": ["C"],
        "other_names": [],
        "abbreviations": []
    },
    {
        "id": 92,
        "name": "HMP/YOI Rochester",
        "address": {
            "address_line_1": "1 Fort Road",
            "city": "Rochester",
            "postcode": "ME1 3QS"
        },
        "region": "South East",
        "location": {
            "latitude": 51.3669296590937,
            "longitude": 0.493473040506466
        },
        "type": ["HMP","YOI"],
        "category": ["HMYOI"],
        "other_names": [],
        "abbreviations": []
    },
    {
        "id": 93,
        "name": "HMP Rye Hill",
        "address": {
            "city": "Willoughby",
            "postcode": "CV23 8SZ"
        },
        "region": "East Midlands",
        "location": {
            "latitude": 52.3275221673303,
            "longitude": -1.24280131376807
        },
        "type": ["HMP"],
        "category": ["B"],
        "other_names": [],
        "abbreviations": []
    },
    {
        "id": 94,
        "name": "HMP Send",
        "address": {
            "address_line_1": "Ripley Road",
            "city": "Woking",
            "postcode": "GU23 7LJ"
        },
        "region": "South East",
        "location": {
            "latitude": 51.2726970311181,
            "longitude": -0.48992523672846
        },
        "type": ["HMP"],
        "category": ["C"],
        "other_names": [],
        "abbreviations": []
    },
    {
        "id": 95,
        "name": "HMP Sheppey Cluster (Elmley)",
        "address": {
            "address_line_1": "Church Road",
            "address_line_2": "Eastchurch",
            "city": "Sheerness",
            "postcode": "ME12 4DZ"
        },
        "region": "South East",
        "location": {
            "latitude": 51.3878243202901,
            "longitude": 0.850863166636709
        },
        "type": ["HMP"],
        "category": ["B","C"],
        "other_names": [],
        "abbreviations": []
    },
    {
        "id": 96,
        "name": "HMP Sheppey Cluster (Standford Hill)",
        "address": {
            "address_line_1": "Church Road",
            "address_line_2": "Eastchurch",
            "city": "Sheerness",
            "postcode": "ME12 4AA"
        },
        "region": "South East",
        "location": {
            "latitude": 51.3949542374638,
            "longitude": 0.850961578015881
        },
        "type": ["HMP"],
        "category": ["D"],
        "other_names": [],
        "abbreviations": []
    },
    {
        "id": 97,
        "name": "HMP Sheppey Cluster (Swaleside)",
        "address": {
            "address_line_1": "Brabazon Road",
            "address_line_2": "Eastchurch",
            "city": "Isle of Sheppey",
            "postcode": "ME12 4AX"
        },
        "region": "South East",
        "location": {
            "latitude": 51.3938124812447,
            "longitude": 0.855002300925511
        },
        "type": ["HMP"],
        "category": ["B"],
        "other_names": [],
        "abbreviations": []
    },
    {
        "id": 98,
        "name": "HMP Stafford",
        "address": {
            "address_line_1": "54 Gaol Road",
            "city": "Stafford",
            "postcode": "ST16 3AW"
        },
        "region": "West Midlands",
        "location": {
            "latitude": 52.8115185180611,
            "longitude": -2.11845216775973
        },
        "type": ["HMP"],
        "category": ["C"],
        "other_names": [],
        "abbreviations": []
    },
    {
        "id": 99,
        "name": "HMP Stocken",
        "address": {
            "address_line_1": "Stocken Hall Road",
            "address_line_2": "Stretton",
            "address_line_3": "Nr Oakham",
            "city": "Rutland",
            "postcode": "LE15 7RD"
        },
        "region": "East Midlands",
        "location": {
            "latitude": 52.7459357597063,
            "longitude": -0.58178579250827
        },
        "type": ["HMP"],
        "category": ["C"],
        "other_names": [],
        "abbreviations": []
    },
    {
        "id": 100,
        "name": "HMP Stoke Heath",
        "address": {
            "city": "Market Drayton",
            "postcode": "TF9 2JL"
        },
        "region": "West Midlands",
        "location": {
            "latitude": 52.8695832612673,
            "longitude": -2.52341454519192
        },
        "type": ["HMP"],
        "category": ["C"],
        "other_names": [],
        "abbreviations": []
    },
    {
        "id": 101,
        "name": "HMP Styal",
        "address": {
            "city": "Wilmslow",
            "postcode": "SK9 4HR"
        },
        "region": "North West",
        "location": {
            "latitude": 53.3411365004954,
            "longitude": -2.23811788367285
        },
        "type": ["HMP"],
        "category": ["C"],
        "other_names": [],
        "abbreviations": []
    },
    {
        "id": 102,
        "name": "HMP Sudbury",
        "address": {
            "city": "Ashbourne",
            "postcode": "DE6 5HW"
        },
        "region": "East Midlands",
        "location": {
            "latitude": 52.8927686704006,
            "longitude": -1.76824986633258
        },
        "type": ["HMP"],
        "category": ["D"],
        "other_names": [],
        "abbreviations": []
    },
    {
        "id": 103,
        "name": "HMP Swansea",
        "address": {
            "address_line_1": "200 Oystermouth Road",
            "city": "Swansea",
            "postcode": "SA1 3SR"
        },
        "region": "Wales",
        "location": {
            "latitude": 51.6153889851527,
            "longitude": -3.94888688184193
        },
        "type": ["HMP"],
        "category": ["B","C"],
        "other_names": [],
        "abbreviations": []
    },
    {
        "id": 104,
        "name": "HMP Swinfen Hall",
        "address": {
            "address_line_1": "Swinfen Hall",
            "city": "Lichfield",
            "postcode": "WS14 9QS"
        },
        "region": "West Midlands",
        "location": {
            "latitude": 52.6533538103777,
            "longitude": -1.80503822384175
        },
        "type": ["HMP"],
        "category": ["C"],
        "other_names": [],
        "abbreviations": []
    },
    {
        "id": 105,
        "name": "HMP Thameside",
        "address": {
            "address_line_1": "Griffin Manor Way",
            "address_line_2": "Thameside",
            "city": "London",
            "postcode": "SE28 0FJ"
        },
        "region": "London",
        "location": {
            "latitude": 51.4934494066238,
            "longitude": 0.0875061523728227
        },
        "type": ["HMP"],
        "category": ["B"],
        "other_names": [],
        "abbreviations": []
    },
    {
        "id": 106,
        "name": "HMP The Mount",
        "address": {
            "address_line_1": "Molyneaux Avenue",
            "address_line_2": "Bovingdon",
            "city": "Hemel Hempstead",
            "postcode": "HP3 0NZ"
        },
        "region": "East of England",
        "location": {
            "latitude": 51.7247174832816,
            "longitude": -0.541355003740706
        },
        "type": ["HMP"],
        "category": ["C"],
        "other_names": [],
        "abbreviations": []
    },
    {
        "id": 107,
        "name": "HMP Thorn Cross",
        "address": {
            "address_line_1": "Arley Road",
            "address_line_2": "Appleton Thorn",
            "city": "Warrington",
            "postcode": "WA4 4RL"
        },
        "region": "North West",
        "location": {
            "latitude": 53.3501252501893,
            "longitude": -2.54097250684907
        },
        "type": ["HMP"],
        "category": ["D"],
        "other_names": [],
        "abbreviations": []
    },
    {
        "id": 108,
        "name": "HMP Usk",
        "address": {
            "address_line_1": "47 Maryport Street",
            "city": "Usk",
            "postcode": "NP15 1XP"
        },
        "region": "Wales",
        "location": {
            "latitude": 51.6994335846033,
            "longitude": -2.90049305220984
        },
        "type": ["HMP"],
        "category": ["C"],
        "other_names": [],
        "abbreviations": []
    },
    {
        "id": 109,
        "name": "HMP Wakefield",
        "address": {
            "address_line_1": "5 Love Lane",
            "city": "Wakefield",
            "postcode": "WF2 9AG"
        },
        "region": "Yorkshire and The Humber",
        "location": {
            "latitude": 53.6832942222709,
            "longitude": -1.50928757638786
        },
        "type": ["HMP"],
        "category": ["A"],
        "other_names": [],
        "abbreviations": []
    },
    {
        "id": 110,
        "name": "HMP Wandsworth",
        "address": {
            "address_line_1": "Heathfield Road",
            "address_line_2": "Wandsworth",
            "city": "London",
            "postcode": "SW18 3HU"
        },
        "region": "London",
        "location": {
            "latitude": 51.4491382850779,
            "longitude": -0.1746657048006
        },
        "type": ["HMP"],
        "category": ["B","C"],
        "other_names": [],
        "abbreviations": []
    },
    {
        "id": 111,
        "name": "HMP/YOI Warren Hill",
        "address": {
            "address_line_1": "Grove Road",
            "city": "Hollesley",
            "postcode": "IP12 3BF"
        },
        "region": "East of England",
        "location": {
            "latitude": 52.058676169594,
            "longitude": 1.46051151463887
        },
        "type": ["HMP","YOI"],
        "category": ["HMYOI"],
        "other_names": [],
        "abbreviations": []
    },
    {
        "id": 112,
        "name": "HMP Wayland",
        "address": {
            "address_line_1": "Griston",
            "city": "Thetford",
            "postcode": "IP25 6RL"
        },
        "region": "East of England",
        "location": {
            "latitude": 52.5524888883285,
            "longitude": 0.858729323609617
        },
        "type": ["HMP"],
        "category": ["C"],
        "other_names": [],
        "abbreviations": []
    },
    {
        "id": 113,
        "name": "HMP Wealstun",
        "address": {
            "address_line_1": "Church Causeway",
            "address_line_2": "Thorp Arch",
            "city": "Wetherby",
            "postcode": "LS23 7AZ"
        },
        "region": "Yorkshire and The Humber",
        "location": {
            "latitude": 53.9161799345314,
            "longitude": -1.32835563020704
        },
        "type": ["HMP"],
        "category": ["C"],
        "other_names": [],
        "abbreviations": []
    },
    {
        "id": 114,
        "name": "HMP/YOI Werrington",
        "address": {
            "address_line_1": "Ash Bank Road",
            "address_line_2": "Werrington",
            "city": "Stoke-on-Trent",
            "postcode": "ST9 0DX"
        },
        "region": "West Midlands",
        "location": {
            "latitude": 53.0223713211011,
            "longitude": -2.0874548139882
        },
        "type": ["HMP","YOI"],
        "category": ["HMYOI"],
        "other_names": [],
        "abbreviations": []
    },
    {
        "id": 115,
        "name": "HMP/YOI Wetherby",
        "address": {
            "address_line_1": "York Road",
            "city": "Wetherby",
            "postcode": "LS22 5ED"
        },
        "region": "Yorkshire and The Humber",
        "location": {
            "latitude": 53.9352508208069,
            "longitude": -1.36781990936025
        },
        "type": ["HMP","YOI"],
        "category": ["HMYOI"],
        "other_names": [],
        "abbreviations": []
    },
    {
        "id": 116,
        "name": "HMP Whatton",
        "address": {
            "address_line_1": "New Lane",
            "city": "Whatton",
            "postcode": "NG13 9FQ"
        },
        "region": "East Midlands",
        "location": {
            "latitude": 52.9474079463341,
            "longitude": -0.91106180679017
        },
        "type": ["HMP"],
        "category": ["C"],
        "other_names": [],
        "abbreviations": []
    },
    {
        "id": 117,
        "name": "HMP Whitemoor",
        "address": {
            "address_line_1": "Longhill Road",
            "city": "March",
            "postcode": "PE15 0PR"
        },
        "region": "East of England",
        "location": {
            "latitude": 52.5757817024951,
            "longitude": 0.0808848591111044
        },
        "type": ["HMP"],
        "category": ["A"],
        "other_names": [],
        "abbreviations": []
    },
    {
        "id": 118,
        "name": "HMP Winchester",
        "address": {
            "address_line_1": "Romsey Road",
            "city": "Winchester",
            "postcode": "SO22 5DF"
        },
        "region": "South East",
        "location": {
            "latitude": 51.0623625886967,
            "longitude": -1.32874699968918
        },
        "type": ["HMP"],
        "category": ["B"],
        "other_names": [],
        "abbreviations": []
    },
    {
        "id": 119,
        "name": "HMP Woodhill",
        "address": {
            "address_line_1": "Tattenhoe Street",
            "city": "Milton Keynes",
            "postcode": "MK4 4DA"
        },
        "region": "South East",
        "location": {
            "latitude": 52.013089866468,
            "longitude": -0.807743625790385
        },
        "type": ["HMP"],
        "category": ["A"],
        "other_names": [],
        "abbreviations": []
    },
    {
        "id": 120,
        "name": "HMP Wormwood Scrubs",
        "address": {
            "address_line_1": "Du Cane Road",
            "city": "London",
            "postcode": "W12 0AE"
        },
        "region": "London",
        "location": {
            "latitude": 51.5176322319491,
            "longitude": -0.240435098005692
        },
        "type": ["HMP"],
        "category": ["B"],
        "other_names": [],
        "abbreviations": []
    },
    {
        "id": 121,
        "name": "HMP Wymott",
        "address": {
            "address_line_1": "Ulnes Walton Lane",
            "address_line_2": "Leyland",
            "city": "Preston",
            "postcode": "PR26 8LW"
        },
        "region": "North West",
        "location": {
            "latitude": 53.6783768747771,
            "longitude": -2.74941212908308
        },
        "type": ["HMP"],
        "category": ["C"],
        "other_names": [],
        "abbreviations": []
    },
    {
        "id": 122,
        "name": "IRC Brook House",
        "address": {
            "address_line_1": "Perimeter Road South",
            "address_line_2": "London Gatwick Airport",
            "city": "Gatwick",
            "postcode": "RH6 0PQ"
        },
        "region": "South East",
        "location": {
            "latitude": 51.1471272688278,
            "longitude": -0.183460514789485
        },
        "type": ["IRC"],
        "category": ["IRC"],
        "other_names": [],
        "abbreviations": []
    },
    {
        "id": 123,
        "name": "IRC Campsfield House",
        "address": {
            "address_line_1": "Langford Lane",
            "city": "Kidlington",
            "postcode": "OX5 1RE"
        },
        "region": "South East",
        "location": {
            "latitude": 51.8274123014939,
            "longitude": -1.31182429693433
        },
        "type": ["IRC"],
        "category": ["IRC"],
        "other_names": [],
        "abbreviations": []
    },
    {
        "id": 124,
        "name": "IRC Colnbrook",
        "address": {
            "address_line_1": "Colnbrook Bypass",
            "address_line_2": "Harmondsworth",
            "city": "West Drayton",
            "postcode": "UB7 0FX"
        },
        "region": "London",
        "location": {
            "latitude": 51.4836139527613,
            "longitude": -0.483084288895335
        },
        "type": ["IRC"],
        "category": ["IRC"],
        "other_names": [],
        "abbreviations": []
    },
    {
        "id": 125,
        "name": "IRC Dungavel House",
        "address": {
            "city": "Strathaven",
            "postcode": "ML10 6RF"
        },
        "region": "Scotland",
        "location": {
            "latitude": 55.6097872131364,
            "longitude": -4.13120241921109
        },
        "type": ["IRC"],
        "category": ["IRC"],
        "other_names": [],
        "abbreviations": []
    },
    {
        "id": 126,
        "name": "IRC Harmondsworth",
        "address": {
            "address_line_1": "Colnbrook Bypass",
            "address_line_2": "Harmondsworth",
            "city": "West Drayton",
            "postcode": "UB7 0HB"
        },
        "region": "London",
        "location": {
            "latitude": 51.4830894130217,
            "longitude": -0.483548153081754
        },
        "type": ["IRC"],
        "category": ["IRC"],
        "other_names": [],
        "abbreviations": []
    },
    {
        "id": 127,
        "name": "IRC Larne House",
        "address": {
            "address_line_1": "2 Hope Street",
            "city": "Larne",
            "postcode": "BT40 1UR"
        },
        "region": "Northern Ireland",
        "location": {
            "latitude": 54.8508284824621,
            "longitude": -5.812772143998
        },
        "type": ["IRC"],
        "category": ["IRC"],
        "other_names": [],
        "abbreviations": []
    },
    {
        "id": 128,
        "name": "IRC Morton Hall",
        "address": {
            "city": "Swinderby",
            "postcode": "LN6 9PT"
        },
        "region": "East Midlands",
        "location": {
            "latitude": 53.1679442054867,
            "longitude": -0.687723613297387
        },
        "type": ["IRC"],
        "category": ["IRC"],
        "other_names": [],
        "abbreviations": []
    },
    {
        "id": 129,
        "name": "IRC Pennine House",
        "address": {
            "address_line_1": "Room 1506-1510",
            "address_line_2": "Terminal 2",
            "city": "Manchester Airport",
            "postcode": "M90 4AG"
        },
        "region": "North West",
        "location": {
            "latitude": 53.3670408707776,
            "longitude": -2.27995065265434
        },
        "type": ["IRC"],
        "category": ["IRC"],
        "other_names": [],
        "abbreviations": []
    },
    {
        "id": 130,
        "name": "IRC Tinsley House",
        "address": {
            "address_line_1": "Perimeter Road South",
            "address_line_2": "Gatwick Airport",
            "city": "Gatwick",
            "postcode": "RH6 0PQ"
        },
        "region": "South East",
        "location": {
            "latitude": 51.1471272688278,
            "longitude": -0.183460514789485
        },
        "type": ["IRC"],
        "category": ["IRC"],
        "other_names": [],
        "abbreviations": []
    },
    {
        "id": 131,
        "name": "IRC Yarl's Wood",
        "address": {
            "address_line_1": "Twinwoods Business Park",
            "address_line_2": "Thurleigh Road",
            "address_line_3": "Milton Ernest",
            "city": "Bedford",
            "postcode": "MK44 2FQ"
        },
        "region": "East of England",
        "location": {
            "latitude": 52.197711,
            "longitude": -0.495473
        },
        "type": ["IRC"],
        "category": ["IRC"],
        "other_names": [],
        "abbreviations": []
    }
]