[
  {
    "id": 1078,
    "account_number": "0M058V",
    "provider_name": "Petty & France LLP",
    "organisation_type": "Limited Liability Partnership",
    "provider_type": "Firm",
    "fee_scheme": [
      "LGFS"
    ],
    "account_status": "active",
    "suppliers": [
      {
        "name": "Petty & France LLP - Birmingham (Corporation Street)",
        "account_number": "1K905R",
        "vat_number": 403564279,
        "address": {
          "address_line_1": "210 Corporation Street",
          "address_line_2": "",
          "address_line_3": "",
          "address_line_4": "",
          "city": "Birmingham",
          "county": "",
          "postcode": "B4 6QB"
        },
        "location": {
          "latitude": 52.4836566625297,
          "longitude": -1.89263830110957
        },
        "region": "West Midlands",
        "dx": {
          "reference": 23519,
          "centre": "BIRMINGHAM 3"
        }
      },
      {
        "name": "Petty & France LLP - Northfield",
        "account_number": "2F741Q",
        "vat_number": 403564279,
        "address": {
          "address_line_1": "896 Bristol Road",
          "address_line_2": "",
          "address_line_3": "",
          "address_line_4": "",
          "city": "Northfield",
          "county": "Birmingham",
          "postcode": "B31 2NS"
        },
        "location": {
          "latitude": 52.4137507462409,
          "longitude": -1.97187523967601
        },
        "region": "West Midlands",
        "dx": {
          "reference": 2102,
          "centre": "EUSTON"
        }
      },
      {
        "name": "Petty & France LLP - Birmingham",
        "account_number": "2M410C",
        "vat_number": 403564279,
        "address": {
          "address_line_1": "9A Coleshill Road",
          "address_line_2": "Hodge Hill",
          "address_line_3": "",
          "address_line_4": "",
          "city": "Birmingham",
          "county": "",
          "postcode": "B36 8DT"
        },
        "location": {
          "latitude": 52.4941727215117,
          "longitude": -1.81743672265755
        },
        "region": "West Midlands",
        "dx": {
          "reference": 23519,
          "centre": "BIRMINGHAM 3"
        }
      },
      {
        "name": "Petty & France LLP - Brighton",
        "account_number": "2N915N",
        "vat_number": 403564279,
        "address": {
          "address_line_1": "Basement",
          "address_line_2": "44 Grand Parade",
          "address_line_3": "",
          "address_line_4": "",
          "city": "Brighton",
          "county": "East Sussex",
          "postcode": "BN2 9QA"
        },
        "location": {
          "latitude": 50.8249431996396,
          "longitude": -0.135392860987331
        },
        "region": "South East",
        "dx": {
          "reference": 2102,
          "centre": "EUSTON"
        }
      },
      {
        "name": "Petty & France LLP - Bury",
        "account_number": "2M411D",
        "vat_number": 403564279,
        "address": {
          "address_line_1": "18 Bolton Street",
          "address_line_2": "",
          "address_line_3": "",
          "address_line_4": "",
          "city": "Bury",
          "county": "",
          "postcode": "BL9 0LQ"
        },
        "location": {
          "latitude": 53.5936649228857,
          "longitude": -2.2993967391912
        },
        "region": "North West",
        "dx": {
          "reference": 14451,
          "centre": "MANCHESTER 2"
        }
      },
      {
        "name": "Petty & France LLP - London (Brixton)",
        "account_number": "2L705L",
        "vat_number": 403564279,
        "address": {
          "address_line_1": "C C 3-50 Kennington Park",
          "address_line_2": "1-3 Brixton Road",
          "address_line_3": "",
          "address_line_4": "",
          "city": "London",
          "county": "",
          "postcode": "SW9 6DE"
        },
        "location": {
          "latitude": 51.4797657591811,
          "longitude": -0.11101278313969
        },
        "region": "London",
        "dx": {
          "reference": 2102,
          "centre": "EUSTON"
        }
      },
      {
        "name": "Petty & France LLP - London (Warren Street)",
        "account_number": "0M058V",
        "vat_number": 403564279,
        "address": {
          "address_line_1": "39 Warren Street",
          "address_line_2": "",
          "address_line_3": "",
          "address_line_4": "",
          "city": "London",
          "county": "",
          "postcode": "W1T 6AF"
        },
        "location": {
          "latitude": 51.5238128352609,
          "longitude": -0.14207203049262
        },
        "region": "London",
        "dx": {
          "reference": 2102,
          "centre": "EUSTON"
        }
      },
      {
        "name": "Petty & France LLP - Dartford",
        "account_number": "2N827T",
        "vat_number": 403564279,
        "address": {
          "address_line_1": "Haselmere",
          "address_line_2": "4 Summerhill Road",
          "address_line_3": "",
          "address_line_4": "",
          "city": "Dartford",
          "county": "Kent",
          "postcode": "DA1 2LP"
        },
        "location": {
          "latitude": 51.4432301544385,
          "longitude": 0.211247386385093
        },
        "region": "South East",
        "dx": {
          "reference": 2102,
          "centre": "EUSTON"
        }
      },
      {
        "name": "Petty & France LLP - Swanley",
        "account_number": "2N829V",
        "vat_number": 403564279,
        "address": {
          "address_line_1": "23 Station Road",
          "address_line_2": "",
          "address_line_3": "",
          "address_line_4": "",
          "city": "Swanley",
          "county": "Kent",
          "postcode": "BR8 8ES"
        },
        "location": {
          "latitude": 51.3945771522793,
          "longitude": 0.175247509406883
        },
        "region": "South East",
        "dx": {
          "reference": 2102,
          "centre": "EUSTON"
        }
      },
      {
        "name": "Petty & France LLP - Hastings",
        "account_number": "2P417J",
        "vat_number": 403564279,
        "address": {
          "address_line_1": "45 Robertson Road",
          "address_line_2": "",
          "address_line_3": "",
          "address_line_4": "",
          "city": "Hastings",
          "county": "",
          "postcode": "TN34 1HL"
        },
        "location": {
          "latitude": 50.8552127280787,
          "longitude": 0.57797231415013
        },
        "region": "South East",
        "dx": {
          "reference": 2102,
          "centre": "EUSTON"
        }
      },
      {
        "name": "Petty & France LLP - Manchester",
        "account_number": "0V774G",
        "vat_number": 403564279,
        "address": {
          "address_line_1": "63-65 Mosley Street",
          "address_line_2": "",
          "address_line_3": "",
          "address_line_4": "",
          "city": "Manchester",
          "county": "",
          "postcode": "M2 3HZ"
        },
        "location": {
          "latitude": 53.4795190637065,
          "longitude": -2.24079137807018
        },
        "region": "North West",
        "dx": {
          "reference": 14451,
          "centre": "MANCHESTER 2"
        }
      },
      {
        "name": "Petty & France LLP - Chatham (King Street)",
        "account_number": "2N826R",
        "vat_number": 403564279,
        "address": {
          "address_line_1": "The Old Ragged School",
          "address_line_2": "King Street",
          "address_line_3": "",
          "address_line_4": "",
          "city": "Chatham",
          "county": "Kent",
          "postcode": "ME4 4LY"
        },
        "location": {
          "latitude": "",
          "longitude": ""
        },
        "region": "",
        "dx": {
          "reference": 2102,
          "centre": "EUSTON"
        }
      },
      {
        "name": "Petty & France LLP - Rainham",
        "account_number": "2N828U",
        "vat_number": 403564279,
        "address": {
          "address_line_1": "24 Longley Road",
          "address_line_2": "",
          "address_line_3": "",
          "address_line_4": "",
          "city": "Rainham",
          "county": "Kent",
          "postcode": "ME8 7RT"
        },
        "location": {
          "latitude": 51.3650551485176,
          "longitude": 0.608823647057416
        },
        "region": "South East",
        "dx": {
          "reference": 2102,
          "centre": "EUSTON"
        }
      },
      {
        "name": "Petty & France LLP - Chatham (Maidstone Road)",
        "account_number": "2P418K",
        "vat_number": 403564279,
        "address": {
          "address_line_1": "F25, Innovation Centre",
          "address_line_2": "Maidstone Road",
          "address_line_3": "",
          "address_line_4": "",
          "city": "Chatham",
          "county": "Kent",
          "postcode": "ME5 9FD"
        },
        "location": {
          "latitude": 51.3475928491759,
          "longitude": 0.507401775211086
        },
        "region": "South East",
        "dx": {
          "reference": 2102,
          "centre": "EUSTON"
        }
      },
      {
        "name": "Petty & France LLP - London (Newham)",
        "account_number": "2P419L",
        "vat_number": 403564279,
        "address": {
          "address_line_1": "66A Green Street",
          "address_line_2": "Newham",
          "address_line_3": "",
          "address_line_4": "",
          "city": "London",
          "county": "",
          "postcode": "E7 8JG"
        },
        "location": {
          "latitude": 51.5442002166908,
          "longitude": 0.0319374829212736
        },
        "region": "London",
        "dx": {
          "reference": 2102,
          "centre": "EUSTON"
        }
      },
      {
        "name": "Petty & France LLP - Stoke On Trent",
        "account_number": "2P048H",
        "vat_number": 403564279,
        "address": {
          "address_line_1": "1-5 Birch Terrace",
          "address_line_2": "Hanley",
          "address_line_3": "",
          "address_line_4": "",
          "city": "Stoke On Trent",
          "county": "Staffordshire",
          "postcode": "ST1 3JN"
        },
        "location": {
          "latitude": 53.0231681635387,
          "longitude": -2.1725683777385
        },
        "region": "West Midlands",
        "dx": {
          "reference": 2102,
          "centre": "EUSTON"
        }
      },
      {
        "name": "Petty & France LLP - Taunton",
        "account_number": "2P420M",
        "vat_number": 403564279,
        "address": {
          "address_line_1": "Eo3 12-14 The Crescent",
          "address_line_2": "",
          "address_line_3": "",
          "address_line_4": "",
          "city": "Taunton",
          "county": "Somerset",
          "postcode": "TA1 4EB"
        },
        "location": {
          "latitude": 51.0124455413004,
          "longitude": -3.10530693912933
        },
        "region": "South West",
        "dx": {
          "reference": 2102,
          "centre": "EUSTON"
        }
      },
      {
        "name": "Petty & France LLP - Margate",
        "account_number": "2P208G",
        "vat_number": 403564279,
        "address": {
          "address_line_1": "14 The Centre",
          "address_line_2": "",
          "address_line_3": "",
          "address_line_4": "",
          "city": "Margate",
          "county": "Kent",
          "postcode": "CT9 1JG"
        },
        "location": {
          "latitude": 51.3871406986345,
          "longitude": 1.38174710118798
        },
        "region": "South East",
        "dx": {
          "reference": 2102,
          "centre": "EUSTON"
        }
      },
      {
        "name": "Petty & France LLP - London (Camberwell)",
        "account_number": "2L669X",
        "vat_number": 403564279,
        "address": {
          "address_line_1": "18 Camberwell Church Street",
          "address_line_2": "",
          "address_line_3": "",
          "address_line_4": "",
          "city": "London",
          "county": "",
          "postcode": "SE5 8QU"
        },
        "location": {
          "latitude": 51.473799856002,
          "longitude": -0.0913445054467451
        },
        "region": "London",
        "dx": {
          "reference": 2102,
          "centre": "EUSTON"
        }
      },
      {
        "name": "Petty & France LLP - London (Leyton)",
        "account_number": "2M413F",
        "vat_number": 403564279,
        "address": {
          "address_line_1": "601 High Road",
          "address_line_2": "Leyton",
          "address_line_3": "",
          "address_line_4": "",
          "city": "London",
          "county": "",
          "postcode": "E10 6RF"
        },
        "location": {
          "latitude": 51.5693101488964,
          "longitude": -0.00858818905046797
        },
        "region": "London",
        "dx": {
          "reference": 2102,
          "centre": "EUSTON"
        }
      }
    ]
  }
]